{"canonical_id":"venue:V0162","venue_id":"V0162","name":"Austin City Limits Live at the Moody Theater","root":"Austin City Limits Live at the Moody Theater","address":"310 Willie Nelson Blvd.","city":"Austin","state":"TX","postal_code":"78701","lat":30.265364,"lon":-97.7472739,"event_ids":["CE00541","MS63486","MS63578","MS63596","MS64000","MS64008","MS64157","OE46572"],"event_count":8}
{"canonical_id":"venue:V0175","venue_id":"V0175","name":"Central Presbyterian Church","root":"Central Presbyterian Church","address":"200 E 8th St.","city":"Austin","state":"TX","postal_code":"78701","lat":30.2697161,"lon":-97.7402698,"event_ids":["MS63278","MS63321","MS63383","MS63463","MS63468","MS63595","MS63822","MS63885","MS63894","MS63920","MS63938","MS63939","MS64205","MS64302"],"event_count":14}
{"canonical_id":"venue:V0177","venue_id":"V0177","name":"Clive Bar","root":"Clive Bar","address":"609 Davis St.","city":"Austin","state":"TX","postal_code":"78701","lat":30.2600314,"lon":-97.7385511,"event_ids":["OE46576","OE46577","OE46578","OE46586"],"event_count":4}
{"canonical_id":"venue:V0178","venue_id":"V0178","name":"Continental Club","root":"Continental Club","address":"1315 S Congress Ave.","city":"Austin","state":"TX","postal_code":"78704","lat":30.2504975,"lon":-97.7490336,"event_ids":["MS63149","MS63214","MS63234","MS63256","MS63264","MS63290","MS63378","MS63380","MS63445","MS63448","MS63493","MS63494","MS63540","MS63552","MS63567","MS63579","MS63591","MS63608","MS63686","MS63816","MS63965","MS63966","MS64213"],"event_count":23}
{"canonical_id":"venue:V0182","venue_id":"V0182","name":"Elysium","root":"Elysium","address":"705 Red River St.","city":"Austin","state":"TX","postal_code":"78701","lat":30.2675715,"lon":-97.7365464,"event_ids":["MS63140","MS63157","MS63372","MS63413","MS63423","MS63446","MS63452","MS63455","MS63495","MS63497","MS63629","MS63641","MS63643","MS63644","MS63645","MS63664","MS63821","MS63949","MS63967","MS64060","MS64086","MS64118","MS64175","MS64229","MS64247","MS64250","MS64257","MS64383"],"event_count":28}
{"canonical_id":"venue:V0185","venue_id":"V0185","name":"Esther's Follies","root":"Esther's Follies","address":"525 E 6th St.","city":"Austin","state":"TX","postal_code":"78701","lat":30.2662879,"lon":-97.7375062,"event_ids":["OE46376"],"event_count":1}
{"canonical_id":"venue:V0186","venue_id":"V0186","name":"Flamingo Cantina","root":"Flamingo Cantina","address":"515 E 6th St.","city":"Austin","state":"TX","postal_code":"78701","lat":30.266484,"lon":-97.7377449,"event_ids":["MS63145","MS63185","MS63186","MS63202","MS63204","MS63232","MS63253","MS63279","MS63291","MS63293","MS63340","MS63341","MS63374","MS63381","MS63388","MS63392","MS63393","MS63403","MS63464","MS63465","MS63472","MS63489","MS63504","MS63506","MS63513","MS63570","MS63571","MS63572","MS63597","MS63626","MS63662","MS63696","MS63834","MS63836","MS63837","MS63907","MS63930","MS63993","MS64079","MS64107","MS64117","MS64122","MS64193","MS64194","MS64283","MS64327","MS64351"],"event_count":47}
{"canonical_id":"venue:V0192","venue_id":"V0192","name":"Hotel Vegas","root":"Hotel Vegas","address":"1502 E 6th St.","city":"Austin","state":"TX","postal_code":"78701","lat":30.263413,"lon":-97.727159,"event_ids":["MS63328","MS63420","MS63442","MS63574","MS63590","MS63593","MS63606","MS63622","MS63660","MS63676","MS63678","MS63692","MS63695","MS63699","MS63727","MS63777","MS63867","MS63870","MS63940","MS63996","MS64197","MS64206","MS64285","MS64465"],"event_count":24}
{"canonical_id":"venue:V0197","venue_id":"V0197","name":"Lamberts","root":"Lamberts","address":"401 W 2nd St.","city":"Austin","state":"TX","postal_code":"78701","lat":30.2651645,"lon":-97.7479301,"event_ids":["MS63461","MS63462","MS63890","MS63910","MS63911","MS63954","MS63955","MS64017","MS64021","MS64022","MS64024","MS64071"],"event_count":12}
{"canonical_id":"venue:V0206","venue_id":"V0206","name":"Mohawk Outdoor","root":"Mohawk","address":"912 Red River St.","city":"Austin","state":"TX","postal_code":"78701","lat":30.2701568,"lon":-97.7360368,"event_ids":["MS63610","MS63665","MS63679","MS63819","MS64001","MS64232","MS64296"],"event_count":7}
{"canonical_id":"venue:V0209","venue_id":"V0209","name":"British Music Embassy @ Palm Door on Sixth","root":"British Music Embassy @ Palm Door on Sixth","address":"508 E 6th St.","city":"Austin","state":"TX","postal_code":"78701","lat":30.2669107,"lon":-97.7377236,"event_ids":["MS63156","MS63252","MS63310","MS63375","MS63384","MS63408","MS63482","MS63507","MS63634","MS63635","MS63725","MS63773","MS63828","MS63913","MS63916","MS63917","MS63921","MS64096","MS64245","MS64264","MS64267","MS64269","MS64270"],"event_count":23}
{"canonical_id":"venue:V0210","venue_id":"V0210","name":"Paramount Theatre","root":"Paramount Theatre","address":"713 Congress Ave.","city":"Austin","state":"TX","postal_code":"78701","lat":30.2693519,"lon":-97.7418824,"event_ids":["FS19252","FS19320","FS19324","FS19334","FS19339","FS19341","FS19342","FS19343","FS19345","FS19348","FS19351","FS19390","FS19420","FS19437","FS19504","FS19512","FS19518","FS19539","FS19552","FS19572","FS19951","OE46621"],"event_count":22}
{"canonical_id":"venue:V0212","venue_id":"V0212","name":"Chess Club","root":"Chess Club","address":"617 Red River St.","city":"Austin","state":"TX","postal_code":"78701","lat":30.2672528,"lon":-97.7366734,"event_ids":["MS63147","MS63187","MS63189","MS63236","MS63274","MS63281","MS63282","MS63283","MS63284","MS63285","MS63292","MS63351","MS63353","MS63354","MS63362","MS63397","MS63402","MS63404","MS63415","MS63416","MS63440","MS63604","MS63652","MS63682","MS63683","MS63719","MS63738","MS63739","MS63763","MS63764","MS63957","MS64011","MS64215","MS64337","MS64339","MS64366"],"event_count":36}
{"canonical_id":"venue:V0220","venue_id":"V0220","name":"Saxon Pub","root":"Saxon Pub","address":"1320 S Lamar Blvd.","city":"Austin","state":"TX","postal_code":"78704","lat":30.2535339,"lon":-97.7635504,"event_ids":["MS63151","MS63173","MS63180","MS63200","MS63233","MS63289","MS63298","MS63332","MS63466","MS63474","MS63476","MS63743","MS63778","MS63879","MS64025"],"event_count":15}
{"canonical_id":"venue:V0226","venue_id":"V0226","name":"Speakeasy","root":"Speakeasy","address":"412 Congress Ave.","city":"Austin","state":"TX","postal_code":"78701","lat":30.2668465,"lon":-97.7437285,"event_ids":["MS63346","MS63449","MS63539","MS63576","MS63577","MS63589","MS63636","MS63638","MS63640","MS63651","MS64149","MS64155","MS64272","MS64273","OE46579","OE46589","OE46590","OE46591","OE46592","OE46611","OE46612","OE46613","OE46614","OE46615","OE46616","OE46617"],"event_count":26}
{"canonical_id":"venue:V0228","venue_id":"V0228","name":"Stubb’s","root":"Stubb’s","address":"801 Red River St.","city":"Austin","state":"TX","postal_code":"78701","lat":30.2684579,"lon":-97.7361748,"event_ids":["MS63251"],"event_count":1}
{"canonical_id":"venue:V0230","venue_id":"V0230","name":"Swan Dive","root":"Swan Dive","address":"615 Red River St.","city":"Austin","state":"TX","postal_code":"78701","lat":30.2671738,"lon":-97.736684,"event_ids":["MS63191","MS63192","MS63195","MS63196","MS63206","MS63222","MS63228","MS63359","MS63371","MS63520","MS63564","MS63621","MS63625","MS63647","MS63734","MS63735","MS63766","MS63767","MS63782","MS63783","MS63784","MS63900","MS63962","MS63968","MS63980","MS63981","MS63982","MS63983","MS63984","MS63985","MS63988","MS64348"],"event_count":32}
{"canonical_id":"venue:V0236","venue_id":"V0236","name":"The Contemporary Austin","root":"The Contemporary Austin","address":"700 Congress Ave.","city":"Austin","state":"TX","postal_code":"78701","lat":30.269273,"lon":-97.7428373,"event_ids":["OE46398"],"event_count":1}
{"canonical_id":"venue:V0248","venue_id":"V0248","name":"Valhalla","root":"Valhalla","address":"710 Red River St.","city":"Austin","state":"TX","postal_code":"78701","lat":30.2680595,"lon":-97.7368537,"event_ids":["MS63198","MS63276","MS63301","MS63304","MS63363","MS63385","MS63386","MS63417","MS63427","MS63428","MS63444","MS63505","MS63530","MS63544","MS63869","MS63871","MS63872","MS63873","MS63896","MS64174","MS64280","MS64444","PP1150503","PP1150504"],"event_count":24}
{"canonical_id":"venue:V0250","venue_id":"V0250","name":"Vulcan Gas Company","root":"Vulcan Gas Company","address":"418 E 6th St.","city":"Austin","state":"TX","postal_code":"78701","lat":30.267162,"lon":-97.738465,"event_ids":["OE46435"],"event_count":1}
{"canonical_id":"venue:V0262","venue_id":"V0262","name":"Hotel Vegas at Volstead","root":"Hotel Vegas","address":"1502 E 6th St.","city":"Austin","state":"TX","postal_code":"78701","lat":30.263413,"lon":-97.727159,"event_ids":["MS63170","MS63313","MS63479","MS63680","MS63866","MS63875","MS63878","MS63906","MS63956","MS63973","MS63999","MS64002","MS64054","MS64156","MS64219"],"event_count":15}
{"canonical_id":"venue:V0263","venue_id":"V0263","name":"Hotel Vegas Patio","root":"Hotel Vegas","address":"1502 E 6th St.","city":"Austin","state":"TX","postal_code":"78701","lat":30.263413,"lon":-97.727159,"event_ids":["MS63144","MS63546","MS63573","MS63607","MS63677","MS63707","MS63723","MS63736","MS63770","MS63779","MS63969","MS64188","MS64227"],"event_count":13}
{"canonical_id":"venue:V0271","venue_id":"V0271","name":"Mohawk Indoor","root":"Mohawk","address":"912 Red River St.","city":"Austin","state":"TX","postal_code":"78701","lat":30.2701568,"lon":-97.7360368,"event_ids":["MS63829","MS63832","MS63833","MS63877"],"event_count":4}
{"canonical_id":"venue:V0272","venue_id":"V0272","name":"British Music Embassy @ Palm Door on Sixth Patio","root":"British Music Embassy @ Palm Door on Sixth Patio","address":"508 E 6th St.","city":"Austin","state":"TX","postal_code":"78701","lat":30.2669107,"lon":-97.7377236,"event_ids":["MS63179","MS63223","MS63267","MS63379","MS63510","MS63519","MS63521","MS63628","MS63749","MS63922","MS63927","MS64221","MS64265","MS64266"],"event_count":14}
{"canonical_id":"venue:V0281","venue_id":"V0281","name":"Stephen F's Bar","root":"Stephen F's Bar","address":"701 Congress Ave.","city":"Austin","state":"TX","postal_code":"78701","lat":30.2690545,"lon":-97.7419885,"event_ids":["OE46473","OE46474"],"event_count":2}
{"canonical_id":"venue:V0282","venue_id":"V0282","name":"Swan Dive Patio","root":"Swan Dive","address":"615 Red River St.","city":"Austin","state":"TX","postal_code":"78701","lat":30.2671738,"lon":-97.736684,"event_ids":["MS63188","MS63227","MS63230","MS63269","MS63295","MS63296","MS63315","MS63320","MS63324","MS63394","MS63395","MS63441","MS63454","MS63538","MS63554","MS63568","MS63581","MS63588","MS63609","MS63633","MS63663","MS63672","MS63673","MS63674","MS63722","MS63737","MS63775","MS63838","MS63933","MS63937","MS64057","MS64106","MS64195","MS64196","MS64400"],"event_count":35}
{"canonical_id":"venue:V0283","venue_id":"V0283","name":"The Courtyard ATX","root":"The Courtyard ATX","address":"208 W 4th St.","city":"Austin","state":"TX","postal_code":"78701","lat":30.2669402,"lon":-97.7451715,"event_ids":["OE46602"],"event_count":1}
{"canonical_id":"venue:V0305","venue_id":"V0305","name":"Innovation Clubhouse","root":"Brazos Hall","address":"204 E 4th St.","city":"Austin","state":"TX","postal_code":"78701","lat":30.2660426,"lon":-97.7417976,"event_ids":["OE46496","OE46501","OE46502","OE46503","OE46504","OE46505","OE46506","OE46507","OE46659","OE46660","OE46661","OE46662","OE46663","OE46664","OE46665","OE46666"],"event_count":16}
{"canonical_id":"venue:V0354","venue_id":"V0354","name":"Rio Grande Ballroom 1","root":"Courtyard Marriott","address":"300 E 4th St.","city":"Austin","state":"TX","postal_code":"78701","lat":30.2655533,"lon":-97.7402274,"event_ids":["PP1148555","PP1148556","PP1149822","PP1162219","PP1162223","PP1162278","PP1162324","PP1162355","PP1162388","PP1162576","PP1162577","PP1162752"],"event_count":12}
{"canonical_id":"venue:V0367","venue_id":"V0367","name":"Room 400-402","root":"Hilton Austin Downtown","address":"500 E 4th St.","city":"Austin","state":"TX","postal_code":"78701","lat":30.2651364,"lon":-97.7381904,"event_ids":["PP1149276","PP1149280","PP1149282","PP1149283","PP1149284","PP1149285","PP1149286","PP1149287","PP1149288","PP1149289","PP1149290","PP1149291","PP1149292","PP1149293","PP1149294","PP1149297","PP1149298","PP1149299","PP1149300","PP1149301","PP1149306","PP1149307","PP1149309","PP1149311","PP1149312","PP1149332","PP1149333","PP1149334","PP1149335","PP1149336","PP1149337","PP1149338","PP1149339","PP1149340","PP1149341","PP1149342","PP1149343","PP1149344","PP1149346","PP1149349","PP1149350","PP1149351","PP1149352","PP1149353","PP1149354","PP1149355","PP1149359","PP1149360","PP1149361","PP1149362","PP1149363","PP1149364","PP1149365","PP1149366","PP1149367","PP1149368","PP1149369","PP1149370","PP1149371","PP1149372","PP1149373","PP1149374","PP1149375","PP1149376","PP1149379","PP1149380","PP1149381","PP1149382","PP1149383","PP1149384","PP1149385","PP1149386","PP1149387","PP1149388","PP1149390","PP1149391","PP1149392","PP1149393","PP1149394","PP1149405","PP1149406","PP1149407","PP1149408","PP1149409","PP1149410","PP1149412","PP1149413","PP1149414","PP1149415","PP1149416","PP1149459","PP1149460","PP1149471","PP1149492","PP1149493","PP1149494","PP1149495","PP1149526","PP1149528","PP1149529","PP1149548","PP1149561","PP1149562","PP1149642","PP1149662","PP1149762","PP1149823","PP1149831","PP1150023","PP1150025","PP1150026","PP1150027","PP1150030","PP1150067","PP1150068","PP1150069","PP1150070","PP1150071","PP1150072","PP1150074","PP1150075","PP1150077","PP1150078","PP1150079","PP1150080","PP1150081","PP1150082","PP1150083","PP1150084","PP1150085","PP1150087","PP1150088","PP1150089","PP1150105","PP1150138","PP1150139","PP1150140","PP1150146","PP1150147","PP1150148","PP1150149","PP1150150","PP1150151","PP1150152","PP1150153","PP1150154","PP1150155","PP1150156","PP1150157","PP1150158","PP1150167","PP1150168","PP1150169","PP1150170","PP1150171","PP1150172","PP1150173","PP1150187","PP1150190","PP1150202","PP1150203","PP1150204","PP1150205","PP1150206","PP1150207","PP1150208","PP1150209","PP1150210","PP1150211","PP1150241","PP1150242","PP1150244","PP1150250","PP1150251","PP1150265","PP1150266","PP1150267","PP1150268","PP1150282","PP1150283","PP1150315","PP1150316","PP1150317","PP1150367","PP1150368","PP1150369","PP1150370","PP1150371","PP1150372","PP1150374","PP1150375","PP1150376","PP1150377","PP1150378","PP1150387","PP1150388","PP1150389","PP1150391","PP1150408","PP1150427","PP1150430","PP1150443","PP1150483","PP1150484","PP1150532","PP1150533","PP1150538","PP1150539","PP1150569","PP1150570","PP1150571","PP1150602","PP1150606","PP1150647","PP1150666","PP1150667","PP1150683","PP1150695"],"event_count":218}
{"canonical_id":"venue:V0368","venue_id":"V0368","name":"Room 412","root":"Hilton Austin Downtown","address":"500 E 4th St.","city":"Austin","state":"TX","postal_code":"78701","lat":30.2651364,"lon":-97.7381904,"event_ids":["PP1150042","PP1150177","PP1150300","PP1150416","PP1162599","PP1162613","PP1162646","PP1162650","PP1162672","PP1162689","PP1162747","PP1162751","PP1162753","PP1162758","PP1162767","PP1162769","PP1162803"],"event_count":17}
{"canonical_id":"venue:V0372","venue_id":"V0372","name":"Salon A","root":"Hilton Austin Downtown","address":"500 E 4th St.","city":"Austin","state":"TX","postal_code":"78701","lat":30.2651364,"lon":-97.7381904,"event_ids":["PP1148550","PP1149639","PP1149665","PP1149928","PP1150040","PP1150056","PP1150301","PP1150542","PP1162225","PP1162315","PP1162336","PP1162344","PP1162352","PP1162354","PP1162465","PP1162488","PP1162584","PP1162617","PP1162636","PP1162678","PP1162698","PP1162711","PP1162804","PP1162830"],"event_count":24}
{"canonical_id":"venue:V0373","venue_id":"V0373","name":"Salon B","root":"Hilton Austin Downtown","address":"500 E 4th St.","city":"Austin","state":"TX","postal_code":"78701","lat":30.2651364,"lon":-97.7381904,"event_ids":["PP1148575","PP1148604","PP1149201","PP1149224","PP1149564","PP1149968","PP1150289","PP1150350","PP1150509","PP1162222","PP1162241","PP1162251","PP1162258","PP1162262","PP1162308","PP1162348","PP1162392","PP1162419","PP1162463","PP1162466","PP1162473","PP1162535","PP1162536","PP1162842"],"event_count":24}
{"canonical_id":"venue:V0375","venue_id":"V0375","name":"Salon C","root":"Hilton Austin Downtown","address":"500 E 4th St.","city":"Austin","state":"TX","postal_code":"78701","lat":30.2651364,"lon":-97.7381904,"event_ids":["PP1150646","PP1150662"],"event_count":2}
{"canonical_id":"venue:V0376","venue_id":"V0376","name":"Salon D","root":"Hilton Austin Downtown","address":"500 E 4th St.","city":"Austin","state":"TX","postal_code":"78701","lat":30.2651364,"lon":-97.7381904,"event_ids":["PP1148521","PP1148523","PP1148578","PP1150621","PP1150649","PP1150673","PP1162228","PP1162299","PP1162321","PP1162353","PP1162381","PP1162411","PP1162418","PP1162439","PP1162454","PP1162462","PP1162476","PP1162528","PP1162580","PP1162596","PP1162602","PP1162633","PP1162649","PP1162729","PP1162764","PP1162912","PP1162938"],"event_count":27}
{"canonical_id":"venue:V0377","venue_id":"V0377","name":"Salon E","root":"Hilton Austin Downtown","address":"500 E 4th St.","city":"Austin","state":"TX","postal_code":"78701","lat":30.2651364,"lon":-97.7381904,"event_ids":["PP1148551","PP1148576","PP1148577","PP1149149","PP1149866","PP1150386","PP1150498","PP1150592","PP1162231","PP1162274","PP1162277","PP1162334","PP1162467","PP1162480","PP1162485","PP1162564","PP1162632","PP1162634","PP1162635","PP1162656","PP1162694","PP1162762","PP1162799","PP1162800","PP1162841","PP1162891"],"event_count":26}
{"canonical_id":"venue:V0404","venue_id":"V0404","name":"Griffin Hall","root":"JW Marriott","address":"110 E 2nd St.","city":"Austin","state":"TX","postal_code":"78701","lat":30.2645713,"lon":-97.743198,"event_ids":["OE46335","OE46336","OE46337","OE46338","OE46339","OE46340","OE46341"],"event_count":7}
{"canonical_id":"venue:V0406","venue_id":"V0406","name":"Room 201-202","root":"JW Marriott","address":"110 E 2nd St.","city":"Austin","state":"TX","postal_code":"78701","lat":30.2645713,"lon":-97.743198,"event_ids":["PP1148554","PP1148574","PP1150323","PP1162236","PP1162254","PP1162260","PP1162290","PP1162328","PP1162332","PP1162346","PP1162356","PP1162414","PP1162442","PP1162468","PP1162525","PP1162547","PP1162557","PP1162718","PP1162725"],"event_count":19}
{"canonical_id":"venue:V0407","venue_id":"V0407","name":"Room 203-204","root":"JW Marriott","address":"110 E 2nd St.","city":"Austin","state":"TX","postal_code":"78701","lat":30.2645713,"lon":-97.743198,"event_ids":["PP1149565","PP1150101","PP1150543","PP1150648","PP1162248","PP1162379","PP1162469","PP1162491","PP1162561"],"event_count":9}
{"canonical_id":"venue:V0411","venue_id":"V0411","name":"Brazos","root":"JW Marriott","address":"110 E 2nd St.","city":"Austin","state":"TX","postal_code":"78701","lat":30.2645713,"lon":-97.743198,"event_ids":["PP1148785","PP1149772","PP1149773","PP1149774","PP1149775","PP1149776","PP1149777","PP1149878","PP1149880","PP1150603","PP1150604","PP1162275","PP1162293","PP1162413","PP1162500","PP1162503"],"event_count":16}
{"canonical_id":"venue:V0419","venue_id":"V0419","name":"Room 303","root":"JW Marriott","address":"110 E 2nd St.","city":"Austin","state":"TX","postal_code":"78701","lat":30.2645713,"lon":-97.743198,"event_ids":["PP1148543","PP1148563","PP1148572","PP1148786","PP1149502","PP1149679","PP1149779","PP1150271","PP1150326","PP1150393","PP1150514","PP1150515","PP1162217","PP1162287","PP1162295","PP1162320","PP1162383","PP1162639"],"event_count":18}
{"canonical_id":"venue:V0453","venue_id":"V0453","name":"Salon C","root":"JW Marriott","address":"110 E 2nd St.","city":"Austin","state":"TX","postal_code":"78701","lat":30.2645713,"lon":-97.743198,"event_ids":["PP1149073","PP1149112","PP1149251","PP1149646","PP1149869","PP1150424","PP1162227","PP1162239","PP1162249","PP1162273","PP1162366","PP1162389","PP1162416","PP1162481","PP1162489","PP1162490","PP1162509","PP1162581","PP1162685","PP1162788"],"event_count":20}
{"canonical_id":"venue:V0454","venue_id":"V0454","name":"Salon D","root":"JW Marriott","address":"110 E 2nd St.","city":"Austin","state":"TX","postal_code":"78701","lat":30.2645713,"lon":-97.743198,"event_ids":["PP1148524","PP1148552","PP1148557","PP1149270","PP1149842","PP1149854","PP1150092","PP1150161","PP1150676","PP1162244","PP1162256","PP1162261","PP1162271","PP1162312","PP1162327","PP1162429","PP1162461","PP1162522","PP1162578","PP1162823"],"event_count":20}
{"canonical_id":"venue:V0455","venue_id":"V0455","name":"Salon E","root":"JW Marriott","address":"110 E 2nd St.","city":"Austin","state":"TX","postal_code":"78701","lat":30.2645713,"lon":-97.743198,"event_ids":["PP1148558","PP1148571","PP1148994","PP1148995","PP1149071","PP1149186","PP1149688","PP1149845","PP1150544","PP1162297","PP1162303","PP1162371","PP1162387","PP1162391","PP1162430","PP1162518","PP1162532","PP1162537","PP1162590","PP1162835","PP1162843"],"event_count":21}
{"canonical_id":"venue:V0471","venue_id":"V0471","name":"Palmer Events Center","root":"Palmer Events Center","address":"900 Barton Springs Rd.","city":"Austin","state":"TX","postal_code":"78704","lat":30.2606889,"lon":-97.7527899,"event_ids":["OE46485","OE46493"],"event_count":2}
{"canonical_id":"venue:V0519","venue_id":"V0519","name":"Room 408","root":"Hilton Austin Downtown","address":"500 E 4th St.","city":"Austin","state":"TX","postal_code":"78701","lat":30.2651364,"lon":-97.7381904,"event_ids":["PP1149770","PP1149947","PP1150354","PP1150366","PP1150422","PP1150516","PP1150567","PP1150572","PP1150580","PP1150623","PP1162230","PP1162253","PP1162272","PP1162289","PP1162330","PP1162404","PP1162412","PP1162423","PP1162484","PP1162487","PP1162504","PP1162582"],"event_count":22}
{"canonical_id":"venue:V0520","venue_id":"V0520","name":"Room 410","root":"Hilton Austin Downtown","address":"500 E 4th St.","city":"Austin","state":"TX","postal_code":"78701","lat":30.2651364,"lon":-97.7381904,"event_ids":["PP1149872","PP1150041","PP1150103","PP1150392","PP1150417","PP1150499","PP1162245","PP1162264","PP1162280","PP1162323","PP1162370","PP1162372","PP1162512","PP1162520","PP1162538","PP1162593","PP1162611","PP1162652","PP1162677","PP1162688","PP1162702","PP1162708","PP1162724","PP1162738"],"event_count":24}
{"canonical_id":"venue:V0550","venue_id":"V0550","name":"Alamo Lamar 6","root":"Alamo Lamar","address":"1120 S Lamar Blvd.","city":"Austin","state":"TX","postal_code":"78704","lat":30.2561977,"lon":-97.7635717,"event_ids":["FS19326","FS19356","FS19377","FS19385","FS19388","FS19392","FS19435","FS19445","FS19450","FS19464","FS19490","FS19523","FS19548","FS19549","FS19575","FS19609","FS19610","FS19618","FS19621","FS19634","FS19638","FS19641","FS19925","FS19930","FS19937","FS19945","FS19962"],"event_count":27}
{"canonical_id":"venue:V0552","venue_id":"V0552","name":"Alamo Lamar 9","root":"Alamo Lamar","address":"1120 S Lamar Blvd.","city":"Austin","state":"TX","postal_code":"78704","lat":30.2561977,"lon":-97.7635717,"event_ids":["FS19369","FS19404","FS19441","FS19453","FS19457","FS19459","FS19474","FS19480","FS19486","FS19491","FS19506","FS19508","FS19519","FS19536","FS19543","FS19547","FS19550","FS19557","FS19596","FS19598","FS19631","FS19642","FS19645","FS19646","FS19652","FS19672","FS19977"],"event_count":27}
{"canonical_id":"venue:V0553","venue_id":"V0553","name":"Alamo Lamar 8","root":"Alamo Lamar","address":"1120 S Lamar Blvd.","city":"Austin","state":"TX","postal_code":"78704","lat":30.2561977,"lon":-97.7635717,"event_ids":["FS19239","FS19327","FS19337","FS19354","FS19360","FS19405","FS19418","FS19443","FS19461","FS19482","FS19499","FS19500","FS19509","FS19540","FS19546","FS19551","FS19556","FS19565","FS19627","FS19628","FS19629","FS19938","FS19946","FS19961","FS19963","FS19966","FS19976"],"event_count":27}
{"canonical_id":"venue:V0554","venue_id":"V0554","name":"Rollins Theatre at the Long Center","root":"Rollins Theatre at the Long Center","address":"701 W Riverside Dr.","city":"Austin","state":"TX","postal_code":"78704","lat":30.259982,"lon":-97.751079,"event_ids":["FS19253","FS19323","FS19363","FS19492","FS19497","FS19501","FS19517","FS19521","FS19538","FS19573","FS19574","FS19586","FS19587","FS19673","FS19674","FS19675","FS19676","FS19677","FS19678","FS19679","FS19680","FS19681","FS19682","FS19683","FS19959"],"event_count":25}
{"canonical_id":"venue:V0557","venue_id":"V0557","name":"Satellite Venue: AFS Cinema","root":"Satellite Venue: AFS Cinema","address":"6259 Middle Fiskville Rd.","city":"Austin","state":"TX","postal_code":"78752","lat":30.324534,"lon":-97.7095032,"event_ids":["FS19386","FS19432","FS19475","FS19494","FS19505","FS19516","FS19535","FS19571","FS19576","FS19600","FS19648","FS19653","FS19656","FS19954","FS19964"],"event_count":15}
{"canonical_id":"venue:V0559","venue_id":"V0559","name":"ZACH Theater","root":"ZACH Theater","address":"202 S Lamar Blvd.","city":"Austin","state":"TX","postal_code":"78704","lat":30.2639432,"lon":-97.7576896,"event_ids":["FS19330","FS19336","FS19344","FS19353","FS19357","FS19384","FS19403","FS19415","FS19429","FS19439","FS19442","FS19456","FS19468","FS19478","FS19487","FS19533","FS19558","FS19568","FS19619","FS19650","FS19659","FS19926","FS19927","FS19960","OE46555"],"event_count":25}
{"canonical_id":"venue:V0566","venue_id":"V0566","name":"Strait","root":"The Westin Austin Downtown","address":"310 E 5th St.","city":"Austin","state":"TX","postal_code":"78701","lat":30.2665709,"lon":-97.7404396,"event_ids":["PP1150003","PP1162826","PP1162984"],"event_count":3}
{"canonical_id":"venue:V0573","venue_id":"V0573","name":"Salon FGH","root":"JW Marriott","address":"110 E 2nd St.","city":"Austin","state":"TX","postal_code":"78701","lat":30.2645713,"lon":-97.743198,"event_ids":["OE46372","PP1148537","PP1148559","PP1148595","PP1148596","PP1148597","PP1148598","PP1148599","PP1148600","PP1148601","PP1148602","PP1148603","PP1150475","PP1162276","PP1162314","PP1162362","PP1162458","PP1162505","PP1162570"],"event_count":19}
{"canonical_id":"venue:V0582","venue_id":"V0582","name":"The Creek and the Cave","root":"The Creek and the Cave","address":"611 E 7th St.","city":"Austin","state":"TX","postal_code":"78701","lat":30.2670856,"lon":-97.7362808,"event_ids":["MS63164","MS63165","MS63190","MS63582","MS63583","MS64014"],"event_count":6}
{"canonical_id":"venue:V0583","venue_id":"V0583","name":"The Creek and the Cave Backyard","root":"The Creek and the Cave","address":"611 E 7th St.","city":"Austin","state":"TX","postal_code":"78701","lat":30.2670856,"lon":-97.7362808,"event_ids":["MS64303","MS64447","MS64448","MS64450","MS64451","MS64454","MS64456"],"event_count":7}
{"canonical_id":"venue:V0590","venue_id":"V0590","name":"Antone’s","root":"Antone’s","address":"305 E 5th St.","city":"Austin","state":"TX","postal_code":"78701","lat":30.266128,"lon":-97.7403547,"event_ids":["MS63343","MS63376","MS63481","MS63483","MS63484","MS63584","MS64089","MS64090","MS64091","MS64092","MS64093","MS64133","OE46490","OE46491","OE46492"],"event_count":15}
{"canonical_id":"venue:V0597","venue_id":"V0597","name":"Seven Grand","root":"Seven Grand","address":"405 E 7th St.","city":"Austin","state":"TX","postal_code":"78701","lat":30.2676617,"lon":-97.7386572,"event_ids":["MS63226","MS63318","MS63323","MS63326","MS63339","MS63360","MS63364","MS63406","MS63414","MS63508","MS63599","MS63600","MS63602","MS63681","MS63786","MS63787","MS63788","MS63881","MS63919","MS64040","MS64078","MS64088","MS64184","MS64202","MS64222","MS64255","MS64278"],"event_count":27}
{"canonical_id":"venue:V0599","venue_id":"V0599","name":"Kingdom","root":"Kingdom","address":"505 E 7th St.","city":"Austin","state":"TX","postal_code":"78701","lat":30.2672791,"lon":-97.7375539,"event_ids":["MS64260","MS64261"],"event_count":2}
{"canonical_id":"venue:V0605","venue_id":"V0605","name":"Alamo Lamar 4","root":"Alamo Lamar","address":"1120 S Lamar Blvd.","city":"Austin","state":"TX","postal_code":"78704","lat":30.2561977,"lon":-97.7635717,"event_ids":["FS19319","FS19358","FS19367","FS19387","FS19421","FS19423","FS19428","FS19483","FS19520","FS19537","FS19560","FS19561","FS19599","FS19604","FS19613","FS19620","FS19622","FS19633","FS19640","FS19649","FS19660","FS19669","FS19671","FS19685","FS19770","FS19931","FS19953"],"event_count":27}
{"canonical_id":"venue:V0870","venue_id":"V0870","name":"State Theatre","root":"State Theatre","address":"713 Congress Ave.","city":"Austin","state":"TX","postal_code":"78701","lat":30.2693519,"lon":-97.7418824,"event_ids":["FS19258","FS19355","FS19364","FS19368","FS19394","FS19399","FS19407","FS19416","FS19422","FS19473","FS19488","FS19559","FS19563","FS19569","FS19608","FS19625","FS19647","FS19651","FS19654","FS19655","FS19661","FS19662","FS19663","FS19666","FS19668","FS19933"],"event_count":26}
{"canonical_id":"venue:V0879","venue_id":"V0879","name":"Shangri-La","root":"Shangri-La","address":"1016 E 6th St.","city":"Austin","state":"TX","postal_code":"78702","lat":30.2650472,"lon":-97.7315725,"event_ids":["MS63184","MS63205","MS63287","MS63297","MS63325","MS63348","MS63349","MS63352","MS63356","MS63439","MS63555","MS63631","MS63648","MS63655","MS63716","MS63717","MS63720","MS63805","MS63845","MS63858","MS63859","MS63868","MS63947","MS64026","MS64102","MS64104","MS64105","MS64109","MS64110","MS64113","MS64134","MS64140","MS64145","MS64237","MS64248","MS64324","MS64364"],"event_count":37}
{"canonical_id":"venue:V0900","venue_id":"V0900","name":"Wanderlust Wine Co.","root":"Wanderlust Wine Co.","address":"610 N Interstate Hwy 35","city":"Austin","state":"TX","postal_code":"78701","lat":30.266322,"lon":-97.7350602,"event_ids":["MS63161","MS63471","MS63478","MS63594","MS63657","MS63666","MS63693","MS63698","MS63702","MS63785","MS63813","MS63815","MS63820","MS63908","MS64068","MS64170","MS64192","MS64289","MS64393","MS64395","MS64396","MS64397","MS64455"],"event_count":23}
{"canonical_id":"venue:V0913","venue_id":"V0913","name":"Long Center","root":"Long Center","address":"701 W Riverside Dr.","city":"Austin","state":"TX","postal_code":"78704","lat":30.259982,"lon":-97.751079,"event_ids":["OE46464"],"event_count":1}
{"canonical_id":"venue:V1054","venue_id":"V1054","name":"Waller Creek Boathouse + Perch Cafe","root":"Waller Creek Boathouse + Perch Cafe","address":"74 Trinity St.","city":"Austin","state":"TX","postal_code":"78701","lat":30.2620223,"lon":-97.7407145,"event_ids":["OE46393","OE46394"],"event_count":2}
{"canonical_id":"venue:V1168","venue_id":"V1168","name":"Low Down Lounge","root":"Low Down Lounge","address":"1412 E 6th St.","city":"Austin","state":"TX","postal_code":"78701","lat":30.2636606,"lon":-97.7275704,"event_ids":["MS63111","MS63312","MS63389","MS63391","MS63421","MS63422","MS63456","MS63477","MS63514","MS63603","MS63708","MS63744","MS63748","MS64062","MS64063","MS64125","MS64126","MS64128","MS64135","MS64141","MS64251","MS64472"],"event_count":22}
{"canonical_id":"venue:V1257","venue_id":"V1257","name":"3rd Floor Prefunction","root":"JW Marriott","address":"110 E 2nd St.","city":"Austin","state":"TX","postal_code":"78701","lat":30.2645713,"lon":-97.743198,"event_ids":["OE46565","OE46566","OE46567"],"event_count":3}
{"canonical_id":"venue:V1270","venue_id":"V1270","name":"Cenote","root":"Cenote","address":"1405 E 7th St","city":"Austin","state":"TX","postal_code":"78702","lat":30.2605439,"lon":-97.7336712,"event_ids":["OE46601"],"event_count":1}
{"canonical_id":"venue:V1281","venue_id":"V1281","name":"Zilker Brewing","root":"Zilker Brewing","address":"1701 E 6th St.","city":"Austin","state":"TX","postal_code":"78702","lat":30.2620446,"lon":-97.7245698,"event_ids":["MS63175","MS63225","MS63255","MS63263","MS63272","MS63280","MS63288","MS63317","MS63330","MS63344","MS63350","MS63434","MS63435","MS63436","MS63541","MS63618","MS63650","MS63740","MS63814","MS63818","MS63874","MS63876","MS63884","MS63934","MS63945","MS63978","MS63979","MS63991","MS64019","MS64231","MS64263","MS64379"],"event_count":32}
{"canonical_id":"venue:V1323","venue_id":"V1323","name":"Paramount III","root":"The Westin Austin Downtown","address":"310 E 5th St.","city":"Austin","state":"TX","postal_code":"78701","lat":30.2665709,"lon":-97.7404396,"event_ids":["PP1161535","PP1161562","PP1161829","PP1161927","PP1161978","PP1162083","PP1162127","PP1162964"],"event_count":8}
{"canonical_id":"venue:V1347","venue_id":"V1347","name":"Malverde","root":"Malverde","address":"400-B W 2nd St.","city":"Austin","state":"TX","postal_code":"78701","lat":30.2657587,"lon":-97.7477209,"event_ids":["OE46481"],"event_count":1}
{"canonical_id":"venue:V1349","venue_id":"V1349","name":"Salon AB","root":"JW Marriott","address":"110 E 2nd St.","city":"Austin","state":"TX","postal_code":"78701","lat":30.2645713,"lon":-97.743198,"event_ids":["PP1148518","PP1148562","PP1148565","PP1148931","PP1148996","PP1150573","PP1162234","PP1162263","PP1162292","PP1162317","PP1162367","PP1162407","PP1162464","PP1162471","PP1162493","PP1162497","PP1162516","PP1162552","PP1162575","PP1162627"],"event_count":20}
{"canonical_id":"venue:V1355","venue_id":"V1355","name":"Alamo Lamar 5","root":"Alamo Lamar","address":"1120 S Lamar Blvd.","city":"Austin","state":"TX","postal_code":"78704","lat":30.2561977,"lon":-97.7635717,"event_ids":["FS19325","FS19346","FS19349","FS19366","FS19373","FS19393","FS19417","FS19424","FS19433","FS19447","FS19458","FS19460","FS19472","FS19502","FS19507","FS19511","FS19513","FS19623","FS19624","FS19626","FS19630","FS19635","FS19670","FS19684","FS19929","FS19934","FS19982"],"event_count":27}
{"canonical_id":"venue:V1464","venue_id":"V1464","name":"Las Perlas","root":"Las Perlas","address":"405 E 7th St.","city":"Austin","state":"TX","postal_code":"78701","lat":30.2676617,"lon":-97.7386572,"event_ids":["MS63143","MS63166","MS63167","MS63211","MS63212","MS63213","MS63219","MS63220","MS63221","MS63242","MS63244","MS63266","MS63268","MS63314","MS63319","MS63327","MS63426","MS63429","MS63430","MS63498","MS63499","MS63500","MS63501","MS63502","MS63503","MS63566","MS63619","MS63667","MS63729","MS63753","MS63755","MS63756","MS63826","MS63855","MS64172","MS64198"],"event_count":36}
{"canonical_id":"venue:V1468","venue_id":"V1468","name":"Fairmont","root":"Fairmont","address":"101 Red River St.","city":"Austin","state":"TX","postal_code":"78701","lat":30.2620982,"lon":-97.7381959,"event_ids":["FS19113","FS19114","FS19115","FS19120","FS19121","FS19122","OE46475","OE46476","OE46477"],"event_count":9}
{"canonical_id":"venue:V1476","venue_id":"V1476","name":"Manchester A","root":"Fairmont","address":"101 Red River St.","city":"Austin","state":"TX","postal_code":"78701","lat":30.2620982,"lon":-97.7381959,"event_ids":["OE46342","OE46343","OE46344","OE46345","OE46346"],"event_count":5}
{"canonical_id":"venue:V1650","venue_id":"V1650","name":"The Reverbery","root":"Hilton Austin Downtown","address":"500 E 4th St.","city":"Austin","state":"TX","postal_code":"78701","lat":30.2651364,"lon":-97.7381904,"event_ids":["OE46281"],"event_count":1}
{"canonical_id":"venue:V1683","venue_id":"V1683","name":"Augustine","root":"Augustine","address":"86 Rainey St.","city":"Austin","state":"TX","postal_code":"78701","lat":30.2596756,"lon":-97.7386599,"event_ids":["MS63802","MS63804","MS63963","MS64243"],"event_count":4}
{"canonical_id":"venue:V1703","venue_id":"V1703","name":"Topaz Ballroom 1-3","root":"The LINE","address":"111 E Cesar Chavez St.","city":"Austin","state":"TX","postal_code":"78701","lat":30.2626651,"lon":-97.7436224,"event_ids":["PP1162858","PP1162859","PP1162864","PP1162866","PP1162876","PP1162879","PP1162880","PP1162881","PP1162882","PP1162883","PP1162884","PP1162898","PP1162899","PP1162902","PP1162940","PP1162963"],"event_count":16}
{"canonical_id":"venue:V1724","venue_id":"V1724","name":"The Pershing","root":"The Pershing","address":"2415 E 5th St.","city":"Austin","state":"TX","postal_code":"78702","lat":30.2578896,"lon":-97.7156879,"event_ids":["MS63534","MS63535","MS63612","MS63669","MS63670","MS63830","MS63905","MS63958","MS63959"],"event_count":9}
{"canonical_id":"venue:V1843","venue_id":"V1843","name":"Venue 6","root":"Venue 6","address":"518 E 6th St.","city":"Austin","state":"TX","postal_code":"78701","lat":30.266797,"lon":-97.7375645,"event_ids":["MS63217","MS63366","MS63367","MS63368","MS63369","MS63370","MS63431","MS63438","MS63522","MS63771","MS63831","MS63839","MS63844","MS63989","MS63992","MS64234","MS64321","OE46580"],"event_count":18}
{"canonical_id":"venue:V1855","venue_id":"V1855","name":"Room 400","root":"Hilton Austin Downtown","address":"500 E 4th St.","city":"Austin","state":"TX","postal_code":"78701","lat":30.2651364,"lon":-97.7381904,"event_ids":["PP1150076","PP1150540"],"event_count":2}
{"canonical_id":"venue:V1859","venue_id":"V1859","name":"Mala Vida","root":"Mala Vida","address":"708 E 6th St.","city":"Austin","state":"TX","postal_code":"78701","lat":30.2662562,"lon":-97.7355382,"event_ids":["MS64043","MS64072","MS64073","MS64074","MS64094","MS64147"],"event_count":6}
{"canonical_id":"venue:V1888","venue_id":"V1888","name":"Coconut Club","root":"Coconut Club","address":"310 Colorado St.","city":"Austin","state":"TX","postal_code":"78701","lat":30.2662896,"lon":-97.7451927,"event_ids":["MS64161"],"event_count":1}
{"canonical_id":"venue:V1890","venue_id":"V1890","name":"Coconut Club Rooftop","root":"Coconut Club","address":"310 Colorado St.","city":"Austin","state":"TX","postal_code":"78701","lat":30.2662896,"lon":-97.7451927,"event_ids":["MS63172","MS64087","MS64392"],"event_count":3}
{"canonical_id":"venue:V1902","venue_id":"V1902","name":"Lefty’s Brick Bar","root":"Lefty’s Brick Bar","address":"1813 E 6th St.","city":"Austin","state":"TX","postal_code":"78702","lat":30.2616703,"lon":-97.722716,"event_ids":["MS63152","MS63182","MS63470","MS63526","MS63632","MS63728","MS63769","MS63791","MS63986","MS63998","MS64124","MS64127","MS64130","MS64150","MS64151","MS64185","MS64186","MS64187","MS64190","MS64203","MS64204","MS64233"],"event_count":22}
{"canonical_id":"venue:V1908","venue_id":"V1908","name":"Auditorium Shores","root":"Auditorium Shores","address":"900 W Riverside Dr.","city":"Austin","state":"TX","postal_code":"78701","lat":30.2636296,"lon":-97.7543843,"event_ids":["OE46374","OE46375"],"event_count":2}
{"canonical_id":"venue:V1924","venue_id":"V1924","name":"Violet Crown 1","root":"Violet Crown Cinema","address":"434 W 2nd St.","city":"Austin","state":"TX","postal_code":"78701","lat":30.2656922,"lon":-97.7482039,"event_ids":["FS19365","FS19374","FS19381","FS19467","FS19476","FS19495","FS19544","FS19562","FS19577","FS19579","FS19582","FS19605","FS19617","FS19957"],"event_count":14}
{"canonical_id":"venue:V1926","venue_id":"V1926","name":"Violet Crown 2","root":"Violet Crown Cinema","address":"434 W 2nd St.","city":"Austin","state":"TX","postal_code":"78701","lat":30.2656922,"lon":-97.7482039,"event_ids":["FS19454","FS19489","FS19522","FS19531","FS19566","FS19588","FS19591","FS19602","FS19612","FS19664","FS19947","FS19949","FS19968","FS19970","FS19973","FS19974"],"event_count":16}
{"canonical_id":"venue:V1927","venue_id":"V1927","name":"Violet Crown 3","root":"Violet Crown Cinema","address":"434 W 2nd St.","city":"Austin","state":"TX","postal_code":"78701","lat":30.2656922,"lon":-97.7482039,"event_ids":["FS19370","FS19375","FS19382","FS19469","FS19477","FS19496","FS19545","FS19564","FS19578","FS19580","FS19583","FS19606","FS19616","FS19958"],"event_count":14}
{"canonical_id":"venue:V1928","venue_id":"V1928","name":"Violet Crown 4","root":"Violet Crown Cinema","address":"434 W 2nd St.","city":"Austin","state":"TX","postal_code":"78701","lat":30.2656922,"lon":-97.7482039,"event_ids":["FS19455","FS19493","FS19524","FS19534","FS19567","FS19589","FS19592","FS19603","FS19615","FS19665","FS19948","FS19950","FS19967","FS19971","FS19972","FS19975"],"event_count":16}
{"canonical_id":"venue:V1993","venue_id":"V1993","name":"Congressional Ballroom","root":"Fairmont","address":"101 Red River St.","city":"Austin","state":"TX","postal_code":"78701","lat":30.2620982,"lon":-97.7381959,"event_ids":["FS19242","FS19935","FS19936","FS19989","FS19990","FS19991","OE46410","OE46411","OE46412"],"event_count":9}
{"canonical_id":"venue:V1998","venue_id":"V1998","name":"Rain","root":"Rain","address":"217 W 4th St.","city":"Austin","state":"TX","postal_code":"78701","lat":30.2665518,"lon":-97.7456808,"event_ids":["OE46480"],"event_count":1}
{"canonical_id":"venue:V2026","venue_id":"V2026","name":"Salon 6-8","root":"JW Marriott","address":"110 E 2nd St.","city":"Austin","state":"TX","postal_code":"78701","lat":30.2645713,"lon":-97.743198,"event_ids":["OE46371","PP1148489","PP1148490","PP1148497","PP1148498","PP1148510","PP1149150","PP1149184","PP1149203","PP1149740","PP1149920","PP1149973","PP1149975","PP1150296","PP1150456","PP1150458","PP1150525"],"event_count":17}
{"canonical_id":"venue:V2027","venue_id":"V2027","name":"Salon 1-4","root":"JW Marriott","address":"110 E 2nd St.","city":"Austin","state":"TX","postal_code":"78701","lat":30.2645713,"lon":-97.743198,"event_ids":["OE46534","OE46535","PP1148482","PP1148485","PP1148487","PP1148506","PP1148542","PP1149033","PP1149051","PP1149185","PP1149188","PP1149255","PP1149257","PP1149496","PP1149798","PP1149972","PP1150522","PP1150582","PP1162470"],"event_count":19}
{"canonical_id":"venue:V2031","venue_id":"V2031","name":"Waterloo Ballroom 4-6","root":"Austin Marriott Downtown","address":"304 E Cesar Chavez St.","city":"Austin","state":"TX","postal_code":"78701","lat":30.2628298,"lon":-97.74157,"event_ids":["PP1148545","PP1148546","PP1148566","PP1150482","PP1150561","PP1161352","PP1161354","PP1162221","PP1162226","PP1162237","PP1162326","PP1162361","PP1162390","PP1162420","PP1162426","PP1162436","PP1162474","PP1162479","PP1162506","PP1162526","PP1162545","PP1162589","PP1162932"],"event_count":23}
{"canonical_id":"venue:V2043","venue_id":"V2043","name":"Moontower Hall","root":"Austin Marriott Downtown","address":"304 E Cesar Chavez St.","city":"Austin","state":"TX","postal_code":"78701","lat":30.2628298,"lon":-97.74157,"event_ids":["OE46413","OE46414","OE46415"],"event_count":3}
{"canonical_id":"venue:V2047","venue_id":"V2047","name":"Manchester Ballroom","root":"Fairmont","address":"101 Red River St.","city":"Austin","state":"TX","postal_code":"78701","lat":30.2620982,"lon":-97.7381959,"event_ids":["OE46327","OE46328","OE46329","OE46405","OE46406","OE46407","OE46618","OE46683","OE46684","OE46685"],"event_count":10}
{"canonical_id":"venue:V2049","venue_id":"V2049","name":"Waller Ballroom C","root":"Austin Marriott Downtown","address":"304 E Cesar Chavez St.","city":"Austin","state":"TX","postal_code":"78701","lat":30.2628298,"lon":-97.74157,"event_ids":["PP1148514","PP1148536","PP1148541","PP1148553","PP1148567","PP1150009","PP1150060","PP1150061","PP1150091","PP1161433","PP1161617","PP1162115","PP1162229","PP1162247","PP1162329","PP1162377","PP1162380","PP1162382","PP1162395","PP1162427","PP1162453","PP1162457","PP1162472","PP1162498","PP1162541","PP1162583","PP1162620","PP1162951"],"event_count":28}
{"canonical_id":"venue:V2050","venue_id":"V2050","name":"Waller Ballroom D","root":"Austin Marriott Downtown","address":"304 E Cesar Chavez St.","city":"Austin","state":"TX","postal_code":"78701","lat":30.2628298,"lon":-97.74157,"event_ids":["PP1148525","PP1148570","PP1149240","PP1149356","PP1150605","PP1161418","PP1161969","PP1162232","PP1162238","PP1162255","PP1162266","PP1162424","PP1162432","PP1162434","PP1162447","PP1162482","PP1162486","PP1162553","PP1162595","PP1162719","PP1162981"],"event_count":21}
{"canonical_id":"venue:V2051","venue_id":"V2051","name":"Waterloo Ballroom 3","root":"Austin Marriott Downtown","address":"304 E Cesar Chavez St.","city":"Austin","state":"TX","postal_code":"78701","lat":30.2628298,"lon":-97.74157,"event_ids":["PP1148512","PP1148538","PP1148539","PP1149040","PP1149873","PP1150347","PP1161771","PP1161907","PP1161937","PP1162214","PP1162215","PP1162216","PP1162218","PP1162325","PP1162359","PP1162398","PP1162399","PP1162406","PP1162421","PP1162502","PP1162551","PP1162573","PP1162574","PP1162796"],"event_count":24}
{"canonical_id":"venue:V2052","venue_id":"V2052","name":"Waterloo Ballroom 4","root":"Austin Marriott Downtown","address":"304 E Cesar Chavez St.","city":"Austin","state":"TX","postal_code":"78701","lat":30.2628298,"lon":-97.74157,"event_ids":["PP1161695","PP1162873","PP1162890"],"event_count":3}
{"canonical_id":"venue:V2071","venue_id":"V2071","name":"Neon Grotto Rooftop","root":"Neon Grotto","address":"318 Colorado St.","city":"Austin","state":"TX","postal_code":"78701","lat":30.2664078,"lon":-97.7450866,"event_ids":["MS63697","MS63706","MS63758","MS63759","MS63827","MS63950","MS64029"],"event_count":7}
{"canonical_id":"venue:V2100","venue_id":"V2100","name":"Neon Grotto","root":"Neon Grotto","address":"318 Colorado St.","city":"Austin","state":"TX","postal_code":"78701","lat":30.2664078,"lon":-97.7450866,"event_ids":["MS63853","MS63856","MS63880","MS63961","MS64085"],"event_count":5}
{"canonical_id":"venue:V2116","venue_id":"V2116","name":"Waterloo Ballroom 2","root":"Austin Marriott Downtown","address":"304 E Cesar Chavez St.","city":"Austin","state":"TX","postal_code":"78701","lat":30.2628298,"lon":-97.74157,"event_ids":["OE46536"],"event_count":1}
{"canonical_id":"venue:V2120","venue_id":"V2120","name":"SKYBOX","root":"SKYBOX","address":"501 W 6th St. 4th Floor","city":"Austin","state":"TX","postal_code":"78701","lat":30.2691893,"lon":-97.7476543,"event_ids":["OE46452","OE46453","OE46454"],"event_count":3}
{"canonical_id":"venue:V2123","venue_id":"V2123","name":"The 13th Floor","root":"The 13th Floor","address":"711 Red River St.","city":"Austin","state":"TX","postal_code":"78701","lat":30.2677499,"lon":-97.7364774,"event_ids":["MS63177","MS63178","MS63235","MS63240","MS63259","MS63265","MS63335","MS63355","MS63365","MS63377","MS63424","MS63443","MS63473","MS63511","MS63542","MS63543","MS63575","MS63649","MS63653","MS63685","MS63691","MS63709","MS63726","MS63765","MS63780","MS63792","MS63824","MS63882","MS63883","MS63887","MS63946","MS64058","MS64119","MS64167","MS64268","MS64329","MS64403","MS64404","MS64405"],"event_count":39}
{"canonical_id":"venue:V2129","venue_id":"V2129","name":"Waller Ballroom A","root":"Austin Marriott Downtown","address":"304 E Cesar Chavez St.","city":"Austin","state":"TX","postal_code":"78701","lat":30.2628298,"lon":-97.74157,"event_ids":["OE46388","OE46396","OE46494","PP1148544","PP1148573","PP1149205","PP1149541","PP1149641","PP1149913","PP1150035","PP1150037","PP1162250","PP1162268","PP1162364","PP1162375","PP1162401","PP1162408","PP1162440","PP1162443","PP1162527","PP1162534","PP1162556","PP1162565","PP1162586","PP1162782","PP1162901"],"event_count":26}
{"canonical_id":"venue:V2130","venue_id":"V2130","name":"Waller Ballroom F","root":"Austin Marriott Downtown","address":"304 E Cesar Chavez St.","city":"Austin","state":"TX","postal_code":"78701","lat":30.2628298,"lon":-97.74157,"event_ids":["PP1162784","PP1162900","PP1162942","PP1162973","PP1163000"],"event_count":5}
{"canonical_id":"venue:V2141","venue_id":"V2141","name":"Waterloo Ballroom 1","root":"Austin Marriott Downtown","address":"304 E Cesar Chavez St.","city":"Austin","state":"TX","postal_code":"78701","lat":30.2628298,"lon":-97.74157,"event_ids":["PP1162508"],"event_count":1}
{"canonical_id":"venue:V2184","venue_id":"V2184","name":"Accenture","root":"Accenture","address":"323 Congress Ave.","city":"Austin","state":"TX","postal_code":"78701","lat":30.2658063,"lon":-97.745408,"event_ids":["OE46594","OE46598","OE46599","OE46600"],"event_count":4}
{"canonical_id":"venue:V2190","venue_id":"V2190","name":"Rio Grande Ballroom 2","root":"Courtyard Marriott","address":"300 E 4th St.","city":"Austin","state":"TX","postal_code":"78701","lat":30.2655533,"lon":-97.7402274,"event_ids":["PP1148519","PP1148527","PP1150126","PP1162233","PP1162257","PP1162286","PP1162298","PP1162300","PP1162378","PP1162384","PP1162410","PP1162507"],"event_count":12}
{"canonical_id":"venue:V2191","venue_id":"V2191","name":"Guadalupe","root":"Courtyard Marriott","address":"300 E 4th St.","city":"Austin","state":"TX","postal_code":"78701","lat":30.2655533,"lon":-97.7402274,"event_ids":["PP1149114","PP1149563","PP1149816","PP1150097","PP1161631","PP1161742","PP1161943","PP1162183","PP1162240","PP1162279","PP1162335","PP1162340","PP1162478","PP1162543","PP1162550"],"event_count":15}
{"canonical_id":"venue:V2194","venue_id":"V2194","name":"Marlow","root":"Marlow","address":"700 E. 6th St.","city":"Austin","state":"TX","postal_code":"78701","lat":30.2663066,"lon":-97.7358631,"event_ids":["MS63400","MS63410","MS63460","MS63480","MS63491","MS63532","MS63533","MS63580","MS63613","MS63620","MS63713","MS63762","MS63825","MS63848","MS63852","MS63857","MS63918","MS63925","MS63926","MS63928","MS64015","MS64108","MS64179","MS64180","MS64230","MS64253","MS64315","MS64445","OE46461","OE46462"],"event_count":30}
{"canonical_id":"venue:V2208","venue_id":"V2208","name":"Red River Ballroom","root":"The Thompson Hotel Austin","address":"506 San Jacinto Blvd.","city":"Austin","state":"TX","postal_code":"78701","lat":30.2667947,"lon":-97.7409874,"event_ids":["OE46382","OE46463","PP1162954"],"event_count":3}
{"canonical_id":"venue:V2212","venue_id":"V2212","name":"Alamo Lamar 3","root":"Alamo Lamar","address":"1120 S Lamar Blvd.","city":"Austin","state":"TX","postal_code":"78704","lat":30.2561977,"lon":-97.7635717,"event_ids":["FS19321","FS19328","FS19331","FS19361","FS19389","FS19400","FS19408","FS19430","FS19434","FS19465","FS19470","FS19479","FS19484","FS19514","FS19525","FS19526","FS19528","FS19541","FS19570","FS19611","FS19632","FS19643","FS19657","FS19952","FS19978","FS19979","FS19980"],"event_count":27}
{"canonical_id":"venue:V2213","venue_id":"V2213","name":"Alamo Lamar 7","root":"Alamo Lamar","address":"1120 S Lamar Blvd.","city":"Austin","state":"TX","postal_code":"78704","lat":30.2561977,"lon":-97.7635717,"event_ids":["FS19240","FS19347","FS19359","FS19376","FS19378","FS19396","FS19410","FS19412","FS19425","FS19436","FS19444","FS19448","FS19451","FS19462","FS19481","FS19498","FS19510","FS19530","FS19553","FS19554","FS19637","FS19639","FS19932","FS19939","FS19942","FS19944","FS19955"],"event_count":27}
{"canonical_id":"venue:V2245","venue_id":"V2245","name":"Edge Rooftop, 5th Floor","root":"JW Marriott","address":"110 E 2nd St.","city":"Austin","state":"TX","postal_code":"78701","lat":30.2645713,"lon":-97.743198,"event_ids":["OE46587"],"event_count":1}
{"canonical_id":"venue:V2249","venue_id":"V2249","name":"Electric Shuffle","root":"Electric Shuffle","address":"91 Red River St.","city":"Austin","state":"TX","postal_code":"78701","lat":30.2609454,"lon":-97.7388282,"event_ids":["OE46624","OE46680","OE46681","OE46682"],"event_count":4}
{"canonical_id":"venue:V2294","venue_id":"V2294","name":"Victory Grill","root":"Victory Grill","address":"1104 E. 11th St.","city":"Austin","state":"TX","postal_code":"78702","lat":30.2692441,"lon":-97.7285581,"event_ids":["MS63611","MS63614","MS63615","MS63616","MS63617","MS63668"],"event_count":6}
{"canonical_id":"venue:V2313","venue_id":"V2313","name":"Brazos I-III","root":"Courtyard Marriott","address":"300 E 4th St.","city":"Austin","state":"TX","postal_code":"78701","lat":30.2655533,"lon":-97.7402274,"event_ids":["PP1148549","PP1149214","PP1161404","PP1161455","PP1161970","PP1162220","PP1162282","PP1162301","PP1162304","PP1162333","PP1162374","PP1162415","PP1162425","PP1162515","PP1162567"],"event_count":15}
{"canonical_id":"venue:V2320","venue_id":"V2320","name":"Onyx Ballroom 1-4","root":"The LINE","address":"111 E Cesar Chavez St.","city":"Austin","state":"TX","postal_code":"78701","lat":30.2626651,"lon":-97.7436224,"event_ids":["PP1162893","PP1162907","PP1162910","PP1162961"],"event_count":4}
{"canonical_id":"venue:V2336","venue_id":"V2336","name":"Alamo Lamar 2","root":"Alamo Lamar","address":"1120 S Lamar Blvd.","city":"Austin","state":"TX","postal_code":"78704","lat":30.2561977,"lon":-97.7635717,"event_ids":["FS19350","FS19379","FS19380","FS19391","FS19411","FS19419","FS19426","FS19440","FS19446","FS19449","FS19452","FS19463","FS19503","FS19532","FS19555","FS19584","FS19585","FS19590","FS19597","FS19601","FS19607","FS19636","FS19667","FS19940","FS19941","FS19943","FS19956"],"event_count":27}
{"canonical_id":"venue:V2337","venue_id":"V2337","name":"Alamo Lamar 1","root":"Alamo Lamar","address":"1120 S Lamar Blvd.","city":"Austin","state":"TX","postal_code":"78704","lat":30.2561977,"lon":-97.7635717,"event_ids":["FS19322","FS19329","FS19333","FS19338","FS19340","FS19362","FS19372","FS19383","FS19401","FS19402","FS19409","FS19413","FS19427","FS19431","FS19466","FS19471","FS19485","FS19515","FS19527","FS19529","FS19581","FS19614","FS19644","FS19658","FS19965","FS19969","FS19981"],"event_count":27}
{"canonical_id":"venue:V2342","venue_id":"V2342","name":"Powder Room","root":"Powder Room","address":"301 W 5th St.","city":"Austin","state":"TX","postal_code":"78701","lat":30.2675879,"lon":-97.7459566,"event_ids":["OE46605","OE46606"],"event_count":2}
{"canonical_id":"venue:V2361","venue_id":"V2361","name":"The Bayberry Room","root":"The Thompson Hotel Austin","address":"506 San Jacinto Blvd.","city":"Austin","state":"TX","postal_code":"78701","lat":30.2667947,"lon":-97.7409874,"event_ids":["OE46584","OE46585","OE46588"],"event_count":3}
{"canonical_id":"venue:V2389","venue_id":"V2389","name":"Brushy Street Commons","root":"Brushy Street Commons","address":"501 Brushy St.","city":"Austin","state":"TX","postal_code":"78702","lat":30.2647851,"lon":-97.7340015,"event_ids":["MS63168","MS63194","MS63207","MS63209","MS63241","MS63433","MS63496","MS63523","MS63731","MS63793","MS63795","MS63796","MS63797","MS63798","MS63799","MS63800","MS63806","MS63807","MS63808","MS63812","MS63846","MS63886","MS63904","MS64154","MS64295"],"event_count":25}
{"canonical_id":"venue:V2390","venue_id":"V2390","name":"Seven Spirits","root":"Seven Spirits","address":"1411 E. 7th St.","city":"Austin","state":"TX","postal_code":"78702","lat":30.2641174,"lon":-97.7274221,"event_ids":["MS63216","MS63302","MS63305","MS63306","MS63467","MS63704","MS63711","MS63712","MS64005","MS64007","MS64166","MS64176","MS64183","MS64259","MS64477","MS64478"],"event_count":16}
{"canonical_id":"venue:V2391","venue_id":"V2391","name":"Radio Day Stage @ Downright Austin Backyard","root":"Downright Austin","address":"710 E. 10th St.","city":"Austin","state":"TX","postal_code":"78701","lat":30.2698058,"lon":-97.7343172,"event_ids":["MS63193","MS63817","MS63897","MS63898","MS63899","MS63924","MS63931","MS64050","MS64051","MS64052","MS64053"],"event_count":11}
{"canonical_id":"venue:V2392","venue_id":"V2392","name":"Global Stage @ Downright Austin Backyard","root":"Downright Austin","address":"710 E. 10th St.","city":"Austin","state":"TX","postal_code":"78701","lat":30.2698058,"lon":-97.7343172,"event_ids":["MS63155","MS63300","MS63347","MS63387","MS63409","MS63469","MS63490","MS63587","MS63757","MS63915","MS63923","MS63929","MS63935","MS63936","MS63964","MS63975","MS64006","MS64018","MS64252"],"event_count":19}
{"canonical_id":"venue:V2397","venue_id":"V2397","name":"Capitol Ballroom ABCD","root":"Downright Austin","address":"710 E. 10th St.","city":"Austin","state":"TX","postal_code":"78701","lat":30.2698058,"lon":-97.7343172,"event_ids":["PP1148561","PP1148564","PP1149092","PP1150394","PP1150656","PP1162285","PP1162445"],"event_count":7}
{"canonical_id":"venue:V2398","venue_id":"V2398","name":"Bridge Ballroom AB","root":"Omni Downtown","address":"700 San Jacinto Blvd.","city":"Austin","state":"TX","postal_code":"78701","lat":30.2689471,"lon":-97.7403971,"event_ids":["PP1149213","PP1150365","PP1150574","PP1150650","PP1162428","PP1162452","PP1162496","PP1162510"],"event_count":8}
{"canonical_id":"venue:V2399","venue_id":"V2399","name":"Mansfield AB","root":"Omni Downtown","address":"700 San Jacinto Blvd.","city":"Austin","state":"TX","postal_code":"78701","lat":30.2689471,"lon":-97.7403971,"event_ids":["PP1148568","PP1150357","PP1150395","PP1162313","PP1162342","PP1162394","PP1162444","PP1162499","PP1162544","PP1162548","PP1162594"],"event_count":11}
{"canonical_id":"venue:V2400","venue_id":"V2400","name":"Pennybacker","root":"Omni Downtown","address":"700 San Jacinto Blvd.","city":"Austin","state":"TX","postal_code":"78701","lat":30.2689471,"lon":-97.7403971,"event_ids":["PP1148531","PP1149877","PP1162224","PP1162284","PP1162294","PP1162368","PP1162402","PP1162523","PP1162546","PP1162585"],"event_count":10}
{"canonical_id":"venue:V2401","venue_id":"V2401","name":"Executive Room","root":"Omni Downtown","address":"700 San Jacinto Blvd.","city":"Austin","state":"TX","postal_code":"78701","lat":30.2689471,"lon":-97.7403971,"event_ids":["PP1149503","PP1149577","PP1149578","PP1149580","PP1149599","PP1149600","PP1149603","PP1149604","PP1149606","PP1149607","PP1149608","PP1149609","PP1149627","PP1149630","PP1149631","PP1149632","PP1149633","PP1149634","PP1149649","PP1149653","PP1149666","PP1149668","PP1149675","PP1149699","PP1149702","PP1149703","PP1149705","PP1149711","PP1149712","PP1149726","PP1149727","PP1149732","PP1149737","PP1149738","PP1149790","PP1150006","PP1150013","PP1150016","PP1150108","PP1150109","PP1150110","PP1150249","PP1150263","PP1150276","PP1150278","PP1150397","PP1150487","PP1150489","PP1150496","PP1150550","PP1150551","PP1150615","PP1150616","PP1150619","PP1150628","PP1150629","PP1150630","PP1150632"],"event_count":58}
{"canonical_id":"venue:V2402","venue_id":"V2402","name":"Liberty","root":"Omni Downtown","address":"700 San Jacinto Blvd.","city":"Austin","state":"TX","postal_code":"78701","lat":30.2689471,"lon":-97.7403971,"event_ids":["PP1149498","PP1149501","PP1149505","PP1149572","PP1149573","PP1149575","PP1149576","PP1149581","PP1149595","PP1149596","PP1149597","PP1149601","PP1149605","PP1149628","PP1149629","PP1149636","PP1149637","PP1149640","PP1149647","PP1149648","PP1149654","PP1149655","PP1149663","PP1149664","PP1149669","PP1149671","PP1149672","PP1149697","PP1149700","PP1149701","PP1149704","PP1149708","PP1149709","PP1149715","PP1149716","PP1149731","PP1149754","PP1149757","PP1149758","PP1149766","PP1149788","PP1149789","PP1149792","PP1150014","PP1150017","PP1150107","PP1150127","PP1150247","PP1150275","PP1150485","PP1150497","PP1150553","PP1150555","PP1150566","PP1150657"],"event_count":55}
{"canonical_id":"venue:V2405","venue_id":"V2405","name":"Capitol Ballroom E","root":"Downright Austin","address":"710 E. 10th St.","city":"Austin","state":"TX","postal_code":"78701","lat":30.2698058,"lon":-97.7343172,"event_ids":["PP1148547","PP1148548","PP1149066","PP1150624","PP1150653","PP1162283","PP1162338","PP1162339","PP1162347","PP1162369","PP1162385","PP1162396","PP1162409","PP1162451","PP1162455","PP1162456","PP1162494","PP1162530","PP1162539","PP1162587"],"event_count":20}
{"canonical_id":"venue:V2406","venue_id":"V2406","name":"Capitol Ballroom FGH","root":"Downright Austin","address":"710 E. 10th St.","city":"Austin","state":"TX","postal_code":"78701","lat":30.2698058,"lon":-97.7343172,"event_ids":["PP1149867","PP1150232","PP1150396","PP1162267","PP1162302","PP1162350","PP1162351","PP1162363","PP1162441","PP1162460","PP1162521","PP1162524","PP1162540","PP1162560","PP1162562"],"event_count":15}
{"canonical_id":"venue:V2407","venue_id":"V2407","name":"Tannehill","root":"Downright Austin","address":"710 E. 10th St.","city":"Austin","state":"TX","postal_code":"78701","lat":30.2698058,"lon":-97.7343172,"event_ids":["PP1149417","PP1149418","PP1149419","PP1149420","PP1149421","PP1149422","PP1149423","PP1149424","PP1149425","PP1149426","PP1149427","PP1149428","PP1149429","PP1149430","PP1149431","PP1149432","PP1149436","PP1149437","PP1149438","PP1149439","PP1149440","PP1149472","PP1149473","PP1149474","PP1149475","PP1149476","PP1149477","PP1149478","PP1149479","PP1149480","PP1149481","PP1149482","PP1149483","PP1149484","PP1149485","PP1149486","PP1149487","PP1149488","PP1149489","PP1149490","PP1149491","PP1149530","PP1149531","PP1149532","PP1149533","PP1149534","PP1149544","PP1149545","PP1149546","PP1149547","PP1149560","PP1149635","PP1149657","PP1149658","PP1149659","PP1149660","PP1149677","PP1149678","PP1149696","PP1149763","PP1149764","PP1149825","PP1149841","PP1149864","PP1149897","PP1149898","PP1149899","PP1149900","PP1149901","PP1149902","PP1149904","PP1149905","PP1149906","PP1149932","PP1149933","PP1149965","PP1149966","PP1149967","PP1150000","PP1150007","PP1150031","PP1150032","PP1150033","PP1150141","PP1150142","PP1150143","PP1150159","PP1150160","PP1150192","PP1150248","PP1150252","PP1150253","PP1150254","PP1150255","PP1150256","PP1150257","PP1150258","PP1150259","PP1150260","PP1150261","PP1150295","PP1150297","PP1150298","PP1150390","PP1150399","PP1150400","PP1150401","PP1150402","PP1150403","PP1150404","PP1150405","PP1150406","PP1150407","PP1150412","PP1150448","PP1150486","PP1150488","PP1150490","PP1150491","PP1150508","PP1150510","PP1150512","PP1150513","PP1150519","PP1150520","PP1150527","PP1150530","PP1150531","PP1150568","PP1150581","PP1150583","PP1150584","PP1150610","PP1150613","PP1150618","PP1150620","PP1150640","PP1150642","PP1150643"],"event_count":139}
{"canonical_id":"venue:V2409","venue_id":"V2409","name":"Room 403-404","root":"Austin Marriott Downtown","address":"304 E Cesar Chavez St.","city":"Austin","state":"TX","postal_code":"78701","lat":30.2628298,"lon":-97.74157,"event_ids":["PP1162812","PP1162818"],"event_count":2}
{"canonical_id":"venue:V2410","venue_id":"V2410","name":"Room 405","root":"Austin Marriott Downtown","address":"304 E Cesar Chavez St.","city":"Austin","state":"TX","postal_code":"78701","lat":30.2628298,"lon":-97.74157,"event_ids":["PP1162871","PP1162928"],"event_count":2}
{"canonical_id":"venue:V2413","venue_id":"V2413","name":"Room 604-605","root":"Austin Marriott Downtown","address":"304 E Cesar Chavez St.","city":"Austin","state":"TX","postal_code":"78701","lat":30.2628298,"lon":-97.74157,"event_ids":["PP1161406","PP1161938","PP1162905"],"event_count":3}
{"canonical_id":"venue:V2414","venue_id":"V2414","name":"Waterloo Ballroom 1-2","root":"Austin Marriott Downtown","address":"304 E Cesar Chavez St.","city":"Austin","state":"TX","postal_code":"78701","lat":30.2628298,"lon":-97.74157,"event_ids":["PP1161466","PP1161484","PP1161517","PP1161725"],"event_count":4}
{"canonical_id":"venue:V2415","venue_id":"V2415","name":"Waterloo Ballroom 5-6","root":"Austin Marriott Downtown","address":"304 E Cesar Chavez St.","city":"Austin","state":"TX","postal_code":"78701","lat":30.2628298,"lon":-97.74157,"event_ids":["PP1161363","PP1161605","PP1161888","PP1162126"],"event_count":4}
{"canonical_id":"venue:V2417","venue_id":"V2417","name":"Hilton Grand Ballroom (Salon HJK)","root":"Hilton Austin Downtown","address":"500 E 4th St.","city":"Austin","state":"TX","postal_code":"78701","lat":30.2651364,"lon":-97.7381904,"event_ids":["OE46419","OE46533","PP1148483","PP1148486","PP1148488","PP1148491","PP1148496","PP1148500","PP1148505","PP1148511","PP1148513","PP1148516","PP1148587","PP1148588","PP1149036","PP1149043","PP1149095","PP1149132","PP1149187","PP1149204","PP1149256","PP1149718","PP1149739","PP1149832","PP1150198"],"event_count":25}
{"canonical_id":"venue:V2418","venue_id":"V2418","name":"Paramount I-II","root":"The Westin Austin Downtown","address":"310 E 5th St.","city":"Austin","state":"TX","postal_code":"78701","lat":30.2665709,"lon":-97.7404396,"event_ids":["PP1161359","PP1161702","PP1162189"],"event_count":3}
{"canonical_id":"venue:V2419","venue_id":"V2419","name":"Rio Grande Ballroom AB","root":"Courtyard Marriott","address":"300 E 4th St.","city":"Austin","state":"TX","postal_code":"78701","lat":30.2655533,"lon":-97.7402274,"event_ids":["PP1148535","PP1161880","PP1162950"],"event_count":3}
{"canonical_id":"venue:V2420","venue_id":"V2420","name":"Representative","root":"Omni Downtown","address":"700 San Jacinto Blvd.","city":"Austin","state":"TX","postal_code":"78701","lat":30.2689471,"lon":-97.7403971,"event_ids":["PP1149500","PP1149504","PP1149570","PP1149571","PP1149602","PP1149638","PP1149667","PP1149670","PP1149673","PP1149698","PP1149713","PP1149733","PP1149752","PP1149760","PP1149767","PP1149782"],"event_count":16}
{"canonical_id":"venue:V2421","venue_id":"V2421","name":"Waller Ballroom B","root":"Austin Marriott Downtown","address":"304 E Cesar Chavez St.","city":"Austin","state":"TX","postal_code":"78701","lat":30.2628298,"lon":-97.74157,"event_ids":["OE46573","OE46574","OE46575","PP1161583","PP1161763","PP1162045","PP1162133","PP1162146","PP1162158","PP1162175"],"event_count":10}
{"canonical_id":"venue:V2424","venue_id":"V2424","name":"Whitis","root":"Omni Downtown","address":"700 San Jacinto Blvd.","city":"Austin","state":"TX","postal_code":"78701","lat":30.2689471,"lon":-97.7403971,"event_ids":["PP1150227","PP1150493","PP1150534","PP1162310","PP1162345","PP1162358"],"event_count":6}
{"canonical_id":"venue:V2427","venue_id":"V2427","name":"Downright Austin","root":"Downright Austin","address":"710 E. 10th St.","city":"Austin","state":"TX","postal_code":"78701","lat":30.2698058,"lon":-97.7343172,"event_ids":["OE46525","OE46526","OE46527","OE46528","OE46529","OE46530"],"event_count":6}
{"canonical_id":"venue:V2437","venue_id":"V2437","name":"Level 4 Foyer","root":"Hilton Austin Downtown","address":"500 E 4th St.","city":"Austin","state":"TX","postal_code":"78701","lat":30.2651364,"lon":-97.7381904,"event_ids":["OE46484","OE46487","OE46488"],"event_count":3}
{"canonical_id":"venue:V2440","venue_id":"V2440","name":"Level 3 Foyer","root":"JW Marriott","address":"110 E 2nd St.","city":"Austin","state":"TX","postal_code":"78701","lat":30.2645713,"lon":-97.743198,"event_ids":["OE46458","OE46459","OE46460"],"event_count":3}
{"canonical_id":"venue:V2446","venue_id":"V2446","name":"Inn Cahoots Austin Garden","root":"Inn Cahoots Austin Garden","address":"1221 E. 6th St.","city":"Austin","state":"TX","postal_code":"78702","lat":30.2639027,"lon":-97.7299849,"event_ids":["MS64199"],"event_count":1}
{"canonical_id":"venue:V2447","venue_id":"V2447","name":"Nivel @ Mala Fama","root":"Mala Fama","address":"422 E. 6th St.","city":"Austin","state":"TX","postal_code":"78701","lat":30.2670288,"lon":-97.7383848,"event_ids":["MS63556","MS63557","MS63558","MS63559","MS63560","MS63561","MS63562","MS63563","MS63732","MS63840","MS63842","MS63843","MS63994","MS63995","MS64075"],"event_count":15}
{"canonical_id":"venue:V2448","venue_id":"V2448","name":"Taco n Maiz","root":"Taco n Maiz","address":"603 Sabine St.","city":"Austin","state":"TX","postal_code":"78701","lat":30.2665073,"lon":-97.7358353,"event_ids":["MS63458","MS63548","MS63551","MS63694","MS63703","MS63809","MS63810","MS63811","MS63835","MS63849","MS63862","MS63903","MS63960","MS64020","MS64036","MS64039","MS64076","MS64077"],"event_count":18}
{"canonical_id":"venue:V2449","venue_id":"V2449","name":"Next Stage (Manchester Ballroom)","root":"Fairmont","address":"101 Red River St.","city":"Austin","state":"TX","postal_code":"78701","lat":30.2620982,"lon":-97.7381959,"event_ids":["PP1150236","PP1162400","PP1162889","PP1162895","PP1162935","PP1162936"],"event_count":6}
{"canonical_id":"venue:V2450","venue_id":"V2450","name":"Guadalupe","root":"Omni Downtown","address":"700 San Jacinto Blvd.","city":"Austin","state":"TX","postal_code":"78701","lat":30.2689471,"lon":-97.7403971,"event_ids":["OE46348","OE46349","OE46350","OE46351","OE46352"],"event_count":5}
{"canonical_id":"venue:V2451","venue_id":"V2451","name":"Capitol View Terrace","root":"Downright Austin","address":"710 E. 10th St.","city":"Austin","state":"TX","postal_code":"78701","lat":30.2698058,"lon":-97.7343172,"event_ids":["OE46354","OE46355","OE46356","OE46357","OE46358","OE46359","OE46360"],"event_count":7}
{"canonical_id":"venue:V2453","venue_id":"V2453","name":"Mala Fama Rooftop","root":"Mala Fama","address":"422 E. 6th St.","city":"Austin","state":"TX","postal_code":"78701","lat":30.2670288,"lon":-97.7383848,"event_ids":["MS63110","MS63357","MS63401","MS63585","MS63627","MS63658","MS63847","MS64033","MS64034","MS64035","MS64037","MS64038","MS64116","MS64143","MS64158","MS64287","MS64462"],"event_count":17}
{"canonical_id":"venue:V2454","venue_id":"V2454","name":"Flatstock Stage @ Austin Marriott Downtown (Moontower Hall)","root":"Austin Marriott Downtown","address":"304 E Cesar Chavez St.","city":"Austin","state":"TX","postal_code":"78701","lat":30.2628298,"lon":-97.74157,"event_ids":["MS63592","MS64131","MS64139","MS64148","MS64201","MS64216","MS64241","MS64242"],"event_count":8}
{"canonical_id":"venue:V2456","venue_id":"V2456","name":"Film & TV Clubhouse","root":"Film & TV Clubhouse","address":"800 Congress Ave.","city":"Austin","state":"TX","postal_code":"78701","lat":30.2702466,"lon":-97.7423627,"event_ids":["OE46508","OE46509","OE46510","OE46511","OE46512","OE46513","OE46514","OE46667","OE46668","OE46669","OE46670","OE46671","OE46672","OE46673","PP1150011"],"event_count":15}
{"canonical_id":"venue:V2457","venue_id":"V2457","name":"700 Congress Ave","root":"The Contemporary Austin","address":"700 Congress Ave.","city":"Austin","state":"TX","postal_code":"78701","lat":30.269273,"lon":-97.7428373,"event_ids":["OE46607","OE46608","OE46610"],"event_count":3}
{"canonical_id":"venue:V2459","venue_id":"V2459","name":"Music Clubhouse","root":"Downright Austin","address":"710 E. 10th St.","city":"Austin","state":"TX","postal_code":"78701","lat":30.2698058,"lon":-97.7343172,"event_ids":["OE46516","OE46517","OE46518","OE46519","OE46520","OE46521","OE46674","OE46675","OE46676","OE46677","OE46678","OE46679","PP1150008","PP1150010","PP1150495","PP1150502","PP1150506","PP1150679"],"event_count":18}
{"canonical_id":"venue:V2460","venue_id":"V2460","name":"Riviere","root":"Riviere","address":"1501 E. 7th St.","city":"Austin","state":"TX","postal_code":"78702","lat":30.2640542,"lon":-97.7269458,"event_ids":["MS63299","MS63492","MS63525","MS63637","MS63794","MS64146","MS64153","MS64164","MS64238"],"event_count":9}
{"canonical_id":"venue:V2462","venue_id":"V2462","name":"5B Prefunction","root":"Fairmont","address":"101 Red River St.","city":"Austin","state":"TX","postal_code":"78701","lat":30.2620982,"lon":-97.7381959,"event_ids":["OE46444","OE46456","OE46457"],"event_count":3}
{"canonical_id":"venue:V2465","venue_id":"V2465","name":"3rd Street and Congress Ave","root":"3rd Street and Congress Ave","address":"3rd Street and Congress Ave.","city":"Austin","state":"TX","postal_code":"78701","lat":30.2652741,"lon":-97.7438579,"event_ids":["OE46467","OE46470","OE46471","OE46472"],"event_count":4}
{"canonical_id":"venue:V2466","venue_id":"V2466","name":"4th & Brazos Street Closure","root":"4th & Brazos Street Closure","address":"4th Street & Brazos St. Closure","city":"Austin","state":"TX","postal_code":"78701","lat":null,"lon":null,"event_ids":["OE46522","OE46523","OE46524"],"event_count":3}
{"canonical_id":"venue:V2467","venue_id":"V2467","name":"Downright Hotel - Creekside Room & Outdoor Patio","root":"Downright Austin","address":"710 E. 10th St.","city":"Austin","state":"TX","postal_code":"78701","lat":30.2698058,"lon":-97.7343172,"event_ids":["OE46540","OE46541","OE46542","OE46543","OE46544","OE46545"],"event_count":6}
{"canonical_id":"venue:V2470","venue_id":"V2470","name":"327 Congress St","root":"327 Congress St","address":"327 Congress St - Suite 650","city":"Austin","state":"TX","postal_code":"78701","lat":30.2659423,"lon":-97.7431955,"event_ids":["OE46399","OE46400","OE46401"],"event_count":3}
{"canonical_id":"venue:V2471","venue_id":"V2471","name":"Alpha School","root":"Alpha School","address":"201 Colorado St, Austin, TX 78701","city":"Austin","state":"TX","postal_code":"78701","lat":30.2650984,"lon":-97.7449492,"event_ids":["OE46571"],"event_count":1}
{"canonical_id":"venue:V2472","venue_id":"V2472","name":"Corner Bar","root":"JW Marriott","address":"110 E 2nd St.","city":"Austin","state":"TX","postal_code":"78701","lat":30.2645713,"lon":-97.743198,"event_ids":["OE46583"],"event_count":1}
{"canonical_id":"venue:V2476","venue_id":"V2476","name":"510 E 5th St - Carmelo's Lot","root":"510 E 5th St - Carmelo's Lot","address":"510 E 5th","city":"Austin","state":"TX","postal_code":"78701","lat":30.2661591,"lon":-97.7392403,"event_ids":["OE46652","OE46653","OE46654"],"event_count":3}
{"canonical_id":"venue:V2478","venue_id":"V2478","name":"4th St Closure (between Congress & Colorado)","root":"4th St Closure (between Congress & Colorado)","address":"4th St Closure (between Congress & Colorado)","city":"Austin","state":"TX","postal_code":"78701","lat":null,"lon":null,"event_ids":["OE46655","OE46656","OE46657","OE46658"],"event_count":4}
{"canonical_id":"venue:V2479","venue_id":"V2479","name":"BATHE","root":"BATHE","address":"2922 E Cesar Chavez St","city":"Austin","state":"TX","postal_code":"78702","lat":30.2527081,"lon":-97.7110743,"event_ids":["OE46687"],"event_count":1}
